[{"name":"East Brunswick High School","coordinates":[-74.3983252,40.4325715]},{"name":"Korea International School","coordinates":[127.0639073,37.4850307]},{"name":"Montgomery Blair High School\r","coordinates":[-77.0116628,39.0183036]},{"name":"William Fremd High School","coordinates":[-88.0653388,42.095368]},{"name":"Bishop Moore Catholic High School","coordinates":[-81.3934667,28.5879649]},{"name":"Mater Dei Catholic High School","coordinates":[-116.9763305,32.6204588]},{"name":"Acero Major Hector P. Garcia MD High School","coordinates":[-87.7306844,41.8082142]},{"name":"Cupertino High School","coordinates":[-122.0091243,37.3194328]},{"name":"Schaumburg High School\r","coordinates":[-88.1068555,42.027448]},{"name":"Rochester Adams High School","coordinates":[-83.1963,42.6966244]},{"name":"Government Development Craft Centre Port Harcourt","coordinates":[7.0394212,4.8440734]},{"name":"Russellville Junior High School\r","coordinates":[-93.1531305,35.2893822]},{"name":"LaBelle High School\r","coordinates":[-81.3994122,26.7493038]},{"name":"Maryville High School","coordinates":[-83.9778158,35.7484309]},{"name":"Washington Township High School","coordinates":[-75.0771565,39.7422346]},{"name":"Vandegrift High School","coordinates":[-97.8241043,30.397078]},{"name":"Lithia Springs High School","coordinates":[-84.6577153,33.7558381]},{"name":"Chinese International School","coordinates":[114.197926,22.283595]},{"name":"Gwinnett School of Mathematics Science and Technology","coordinates":[-84.060341,33.952872]},{"name":"Boulder High School","coordinates":[-105.2733809,40.0139489]},{"name":"Redwood High School\r","coordinates":[-122.5243899,37.9382506]},{"name":"White Station High School","coordinates":[-89.9054327,35.1181396]},{"name":"Hendersonville High School","coordinates":[-86.6054698,36.3033505]},{"name":"Harbor High School\r ","coordinates":[-121.9935822,36.9862029]},{"name":"Bioscience High school\r","coordinates":[-112.066851,33.4557793]},{"name":"John F. Kennedy","coordinates":[-121.5312697,38.5057868]},{"name":"Kapaun Mt. Carmel","coordinates":[-97.2383327,37.6954726]},{"name":"Gwendolyn Brooks College Preparatory Academy","coordinates":[-87.6158444,41.6941384]},{"name":"Ward Melville HS","coordinates":[-73.0750311,40.9161472]},{"name":"Skyview High School\r","coordinates":[-122.6835658,45.7228462]},{"name":"Silva Health Magnet\r","coordinates":[-106.4331483,31.7690451]},{"name":"Riverside Area High School\r","coordinates":[-80.260473,40.831917]},{"name":"Bolsa Grande High School\r","coordinates":[-117.9644852,33.7611217]},{"name":"Arrowhead Union High School\r","coordinates":[-88.343141,43.114222]},{"name":"Sequoyah High School\r","coordinates":[-84.4297116,34.1713566]},{"name":"Palatine High School","coordinates":[-88.0217841,42.132177]},{"name":"Hong Kong International School","coordinates":[114.2235759,22.2377876]},{"name":"Northwood High School, Irvine, California","coordinates":[-117.7502612,33.7342229]},{"name":"Niwot High School","coordinates":[-105.1432525,40.1035859]},{"name":"Cherry Hill High School East","coordinates":[-74.963878,39.8763345]},{"name":"Robert F. Kennedy High School\r","coordinates":[-119.2687411,35.7725618]},{"name":"Saint Anthony's High School","coordinates":[-73.3928107,40.8114599]},{"name":"Palo Alto Senior High School\r","coordinates":[-122.1556904,37.4357409]},{"name":"Shanghai Pinghe School\r","coordinates":[121.589536,31.239867]},{"name":"Bladensburg High School\r ","coordinates":[-76.9187859,38.942597]},{"name":"Menlo School","coordinates":[-122.191283,37.4532626]},{"name":"Los Altos High School","coordinates":[-122.1089449,37.3866556]},{"name":"School for Advanced Studies","coordinates":[-80.3740533,25.673736]},{"name":"Southwestern Educational Society","coordinates":[-67.1060353,18.2323231]},{"name":"Whitewater High School","coordinates":[-84.4725097,33.3783676]},{"name":"University City High School","coordinates":[-83.985,42.43472]},{"name":"West Port High School","coordinates":[-82.249735,29.153516]},{"name":"Pacific Collegiate School","coordinates":[-122.0597888,36.9605146]},{"name":"Allen County Scottsville High School","coordinates":[-86.2189833,36.7545011]},{"name":"Northshore High School","coordinates":[-89.743116,30.271015]},{"name":"Washington High School","coordinates":[-121.9948226,37.5528194]},{"name":"Lake Michigan Catholic High School \r","coordinates":[-86.4778652,42.1080301]},{"name":"Carlmont High School\r","coordinates":[-122.2890638,37.5063623]},{"name":"Holmen High School\r","coordinates":[-91.2779484,43.9721521]},{"name":"Piedmont High School\r","coordinates":[-122.2327116,37.823591]},{"name":"Moreau Catholic High School","coordinates":[-122.0599314,37.6439573]},{"name":"West Charlotte High School\r","coordinates":[-80.8597686,35.2660082]},{"name":"Rosemead High School\r","coordinates":[-118.0715095,34.0855289]},{"name":"St. Anthony High School\r","coordinates":[-88.5384203,39.129542]},{"name":"Bryan Station High School\r","coordinates":[-84.4564647,38.0669521]},{"name":"Churchill High School","coordinates":[-123.1514126,44.0393294]},{"name":"George Mason High School\r","coordinates":[-77.1914341,38.8964051]},{"name":"Port Chester High School\r","coordinates":[-73.6764024,41.0116821]},{"name":"The Woodlands High School\r","coordinates":[-95.503978,30.193788]},{"name":"South High School\r","coordinates":[-104.9661233,39.6919063]},{"name":"East Leyden High School","coordinates":[-87.8666044,41.9415243]},{"name":"Alhambra High School \r","coordinates":[-122.1333639,38.0025956]},{"name":"La Jolla High School","coordinates":[-117.2733541,32.8327439]},{"name":"Colegio Internacional\r","coordinates":[-99.1982548,19.3369925]},{"name":"Lake Nona High School","coordinates":[-81.2455296,28.3812054]},{"name":"Windsor High School\r","coordinates":[-122.8177052,38.542042]},{"name":"Williston High School\r","coordinates":[-103.669789,48.1754219]},{"name":"Iona Preperatory School\r","coordinates":[-73.7934273,40.9638965]},{"name":"Cook County ISD 166\r","coordinates":[-90.3331402,47.7556886]},{"name":"Northside College Prep\r","coordinates":[-87.7078105,41.9812798]},{"name":"Junction City High School\n","coordinates":[-96.849137,39.0315537]},{"name":"Redondo Union High School","coordinates":[-118.3864988,33.8447527]},{"name":"Half Hollow Hills High School West\r","coordinates":[-73.375208,40.8095369]},{"name":"Apex Friendship High School","coordinates":[-78.9037738,35.7001282]},{"name":"Staples high school\r","coordinates":[-73.3316241,41.1541199]},{"name":"Mountain Vista Governor's School\r","coordinates":[-77.783443,38.683086]},{"name":"Walter Payton College Prep\r","coordinates":[-87.6351255,41.9016572]},{"name":"Huntley High School\r","coordinates":[-88.4652598,42.16227]},{"name":"Tioga High School\r","coordinates":[-120.2270266,37.8625873]},{"name":"Muskegon Catholic Central\r","coordinates":[-86.2477705,43.2194891]},{"name":"El Capitan High School\r","coordinates":[-116.916965,32.866359]},{"name":"Calvary Christian Academy\r","coordinates":[-122.2927632,37.9627341]},{"name":"Olathe North High School \r","coordinates":[-94.8082785,38.8875164]},{"name":"Parkway West High School\r","coordinates":[-90.53479,38.622805]},{"name":"Piedmont Hills High School\r","coordinates":[-121.8512421,37.4016279]},{"name":"Lord Byron School","coordinates":[-76.907667,-12.083166]},{"name":"Roseville Area High School","coordinates":[-93.1521097,45.0127953]},{"name":"International Academy East","coordinates":[-83.2261738,42.603372]},{"name":"Private Rahime Batu High School\r","coordinates":[38.2144072,38.332325]},{"name":"Lake Orion High School\r","coordinates":[-83.2330989,42.754826]},{"name":"West Lafayette Junior/Senior High School\r","coordinates":[-86.9105995,40.4359224]},{"name":"San Leandro High School","coordinates":[-122.1432409,37.7178626]},{"name":"Valley Christian High School\r","coordinates":[-121.8269007,37.2763217]},{"name":"Spring Valley High School\r","coordinates":[-82.527402,38.378617]},{"name":"Atlee High School","coordinates":[-77.410022,37.664459]},{"name":"Summit Public School: Shasta","coordinates":[-122.4785513,37.6680413]},{"name":"Edison High School \r","coordinates":[-121.2884218,37.9377848]},{"name":"Oden High School","coordinates":[-93.780434,34.6200624]},{"name":"Novi High School","coordinates":[-83.4910381,42.4639121]},{"name":"Olympic Heights Community High School\r","coordinates":[-80.1890386,26.377266]},{"name":"Blue Valley North West High School\n","coordinates":[-94.702916,38.889166]},{"name":"State College Area High School\r","coordinates":[-77.8592098,40.7825879]},{"name":"North Springs High School\r","coordinates":[-84.3630474,33.9572124]},{"name":"Stonington High School\r","coordinates":[-71.8607452,41.3667292]},{"name":"Tuscola High School","coordinates":[-82.952652,35.522771]},{"name":"San Mateo High School","coordinates":[-122.3302013,37.5772194]},{"name":"Bridgeport High School\r ","coordinates":[-80.7773194,40.0690868]},{"name":"East Bay Innovation Academy","coordinates":[-122.1411206,37.7460531]},{"name":"Garza High School","coordinates":[-97.7211962,30.2773093]},{"name":"Classical Christian Academy","coordinates":[-116.9791358,47.7166]},{"name":"Dougherty Valley High School","coordinates":[-121.9033842,37.7694839]},{"name":"Roslyn High School","coordinates":[-73.6396231,40.7911753]},{"name":"Izmir American Collegiate Institute \r","coordinates":[27.089669,38.394668]},{"name":"Traverse City Saint Francis High School\r","coordinates":[-85.6226998,44.7562378]},{"name":"Stanly Early College High School","coordinates":[-80.2329307,35.3364448]},{"name":"Long Reach High School\r","coordinates":[-76.8111306,39.2059628]},{"name":"North Mecklenburg High School","coordinates":[-80.841989,35.420519]},{"name":"William Mason High School","coordinates":[-84.3077195,39.3514543]},{"name":"Old Bridge High School\r","coordinates":[-74.2747235,40.4071206]},{"name":"Summit Public School: Tahoma","coordinates":[-121.8193396,37.2527374]},{"name":"Gunn High School","coordinates":[-122.1338426,37.4001912]},{"name":"Severna Park High School","coordinates":[-76.5580656,39.077646]},{"name":"St. Francis High School","coordinates":[-122.0847981,37.3696044]},{"name":"Academy for Information Technology (Union County Vocational Technical Schools)\r","coordinates":[-74.357957,40.617044]},{"name":"Abraham Lincoln High School","coordinates":[-122.4809983,37.7472812]},{"name":"Venice High School","coordinates":[-118.4457512,33.9970577]},{"name":"Normal Community High School","coordinates":[-88.9148929,40.5331275]},{"name":"La Puente High School","coordinates":[-117.955611,34.0256216]},{"name":"St. Peter's Preporatory School","coordinates":[-74.0396695,40.7156602]},{"name":"Beijing National Day School\r","coordinates":[116.253364,39.897872]},{"name":"Wilcox High School\r","coordinates":[-121.9863612,37.3661381]},{"name":"Sandra Day O'Connor High School","coordinates":[-112.1376865,33.7177739]},{"name":"Wheeler High School","coordinates":[-87.1792137,41.4792721]},{"name":"Thomson High School","coordinates":[-82.474456,33.4734389]},{"name":"Dixie County High School","coordinates":[-83.1250123,29.6345475]},{"name":"Lordsburg High School","coordinates":[-108.714375,32.3492848]},{"name":"Monona Grove High School\r","coordinates":[-89.323357,43.0718219]},{"name":"Thomas S. Wootton High School","coordinates":[-77.1831581,39.0770268]},{"name":"Monta Vista High School","coordinates":[-122.0557789,37.3148044]},{"name":"Abraham Lincoln High School","coordinates":[-121.9242084,37.32789]},{"name":"Bishop Stang High School\r","coordinates":[-70.967793,41.636356]},{"name":"Lowell High School","coordinates":[-122.4828664,37.7303148]},{"name":"Verrado High School","coordinates":[-112.4913558,33.4947928]},{"name":"Oak Ridge High School","coordinates":[-121.070664,38.6798659]},{"name":"SEK-Ciudalcampo International School\r","coordinates":[-3.5878457,40.6263248]},{"name":"Oakland Technical High School\r","coordinates":[-122.2553866,37.8323024]},{"name":"Kapaa High School","coordinates":[-159.3143661,22.0916949]},{"name":"Bethesda Chevy-Chase High School\r","coordinates":[-77.0885041,38.9864928]},{"name":"Waubonsie Valley High School","coordinates":[-88.2521981,41.7401779]},{"name":"Downingtown STEM Academy","coordinates":[-75.714292,40.0090231]},{"name":"Sunlake High School\r","coordinates":[-82.508777,28.2008457]},{"name":"Rosemount High School","coordinates":[-93.1332504,44.7444976]},{"name":"Helix Charter High School","coordinates":[-117.0365691,32.7540843]},{"name":"Chantilly High School\r","coordinates":[-77.406255,38.880314]},{"name":"Chinguacousy Secondary School ","coordinates":[-79.728494,43.737077]},{"name":"La Canada High School\r","coordinates":[-118.1788844,34.1930725]},{"name":"High Point Regional\r","coordinates":[-80.0135896,35.9627218]},{"name":"West Bloomfield High School","coordinates":[-83.3608109,42.5662882]},{"name":"Sullivan East High School","coordinates":[-82.2085543,36.5047067]}]